name,city,lat,lon,asphalt_quality,length_km,safety,description,contributor,elevation_drop_m,max_grade_pct,climb_length_m,difficulty_color,is_verified,likes
ЛБК «Перекоп» (Дом бренда SHAMOV) 🏆,"Кировская область, Кирово-Чепецк",58.5205,50.0543,5,5.0,🟢 Полностью закрытая,"Легендарная профессиональная трасса, где регулярно проходят этапы Кубка России и Кубка Шамова. Крутые спуски, серьезные подъемы и безупречный асфальт.",SMM SHAMOV,110,18,1200,⚪ Профи (Белая),True,124
Трасса им. Ларисы Лазутиной (Одинцово),"Московская область, Одинцово",55.6917,37.2478,5,6.0,🟢 Полностью закрытая,"Превосходная роллерная трасса в сосновом лесу. Имеет тяжелый рабочий рельеф, скоростные спуски со светофорами безопасности. Идеальна для коньковых тренировок.",лыжник_одинцово,75,12,800,🔴 Сложная (Красная),True,98
УТЦ «Кавголово» (НГУ им. Лесгафта),"Ленинградская область, Токсово",60.1581,30.5186,5,3.0,🟢 Полностью закрытая,"Профессиональный биатлонный центр. Трасса имеет крутые виражи, отличный накат и жесткие подъемы. Катать рекомендуется только в шлеме!",spb_skier,60,15,500,⚪ Профи (Белая),True,84
ОЦСП «Жемчужина Сибири»,"Тюменская область, Тюмень",57.0016,65.2536,5,7.5,🟢 Полностью закрытая,"Один из лучших лыжно-биатлонных комплексов мира. Широкая трасса, идеальный асфальт, длинный круг. Подходит для накатывания больших летних объемов.",siberia_biathlon,45,8,600,🔵 Средняя (Синяя),True,76
ОУСЦ «Планерная» (Химки),"Московская область, Химки",55.9184,37.3516,4,2.5,🟢 Полностью закрытая,"Хорошая тренировочная трасса на севере Подмосковья. Есть рельеф средней сложности, асфальт рабочий, но местами бывает листва и веточки.",msk_skate,30,7,400,🔵 Средняя (Синяя),True,43
ЛБК «Ангарский»,"Иркутская область, Ангарск",52.5401,103.886,4,2.5,🟢 Полностью закрытая,"Хорошая освещенная трасса для тренировок сибиряков. Асфальт качественный, подъемы плавные, подходит для любителей.",baikal_skier,25,5,300,🔵 Средняя (Синяя),True,39
Парк «Крылатские холмы» (Москва),"Москва, Крылатское",55.7621,37.4243,4,4.2,🔴 Открытая дорога,"Олимпийская велотрасса. Бешеный рельеф, огромные скорости на спусках. Будьте предельно осторожны — тормозить негде, а на трассе часто гуляют люди!",pro_skier_moscow,120,16,1500,⚪ Профи (Белая),True,115
Трасса «Ветлужанка»,Красноярск,56.0125,92.7483,3,3.0,🟢 Полностью закрытая,"Лесная тренировочная трасса. Асфальт местами неровный (крупное зерно), отлично подходит для тренировок на мягком гасящем каучуке Shamov 02-1.",krsk_ski,20,4,200,🟢 Простая (Зеленая),True,27
